City_ID,City,Lat,Lng,Max Temp,Humidity,Cloudiness,Wind Speed,Country,Date
0,Morondava,-20.2833,44.2833,84.52,61,39,2.98,MG,2023-01-15 06:36:47
1,New Norfolk,-42.7826,147.0587,69.93,27,0,5.01,AU,2023-01-15 06:36:48
2,Barrow,71.2906,-156.7887,-0.38,71,40,20.71,US,2023-01-15 06:36:48
3,Alice Springs,-23.7,133.8833,92.75,40,40,19.57,AU,2023-01-15 06:32:22
4,Karmaskaly,54.3709,56.1837,-4.09,90,99,9.48,RU,2023-01-15 06:36:49
5,Filadelfia,39.9523,-75.1638,31.1,69,75,16.11,US,2023-01-15 06:34:37
6,Abbeville,50.1,1.8333,46.36,73,77,19.39,FR,2023-01-15 06:36:49
7,Busselton,-33.65,115.3333,79.16,38,0,16.08,AU,2023-01-15 06:36:50
8,Comodoro Rivadavia,-45.8667,-67.5,49.86,87,0,3.44,AR,2023-01-15 06:36:50
9,Thompson,55.7435,-97.8558,-0.24,85,100,8.05,CA,2023-01-15 06:36:51
10,Guerrero Negro,27.9769,-114.0611,58.91,80,100,6.51,MX,2023-01-15 06:36:51
11,Vaini,-21.2,-175.2,84.36,89,40,4.61,TO,2023-01-15 06:36:51
12,Bengkulu,-3.8004,102.2655,83.03,67,34,7.96,ID,2023-01-15 06:36:52
13,Bonthe,7.5264,-12.505,72.7,93,47,4.23,SL,2023-01-15 06:36:52
14,Sinnamary,5.3833,-52.95,73.67,93,96,6.31,GF,2023-01-15 06:36:53
15,Northam,51.0333,-4.2167,44.26,87,96,27.0,GB,2023-01-15 06:36:53
16,Esperance,-33.8667,121.9,75.94,50,100,20.33,AU,2023-01-15 06:36:54
17,San Cristobal,7.7669,-72.225,63.97,93,66,2.06,VE,2023-01-15 06:36:54
18,Avarua,-21.2078,-159.775,75.25,73,20,3.44,CK,2023-01-15 06:36:54
19,Nikolskoye,59.7035,30.7861,37.29,91,99,12.28,RU,2023-01-15 06:36:55
20,Krasnoyarsk,56.0097,92.7917,12.65,82,100,16.2,RU,2023-01-15 06:34:14
21,Khatanga,71.9667,102.5,-38.85,100,99,1.34,RU,2023-01-15 06:36:55
22,Le Vauclin,14.5452,-60.8388,76.84,100,20,0.0,MQ,2023-01-15 06:36:56
23,Sheksna,59.21,38.5107,30.16,96,100,12.55,RU,2023-01-15 06:36:56
24,Ribeira Grande,38.5167,-28.7,53.78,58,20,11.01,PT,2023-01-15 06:36:57
25,Vao,-22.6667,167.4833,77.23,75,20,20.31,NC,2023-01-15 06:36:57
26,Half Moon Bay,37.4636,-122.4286,53.47,89,75,10.36,US,2023-01-15 06:36:58
27,Takoradi,4.8845,-1.7554,78.17,81,31,2.66,GH,2023-01-15 06:33:26
28,Tuktoyaktuk,69.4541,-133.0374,-18.4,76,75,10.36,CA,2023-01-15 06:36:59
29,Cape Town,-33.9258,18.4232,73.11,63,20,23.02,ZA,2023-01-15 06:36:59
30,Catamarca,-28.4696,-65.7852,78.78,42,28,5.01,AR,2023-01-15 06:37:00
31,Kavieng,-2.5744,150.7967,82.81,74,43,6.67,PG,2023-01-15 06:37:00
32,Touros,-5.1989,-35.4608,78.51,78,3,12.15,BR,2023-01-15 06:32:08
33,Dasoguz,41.8363,59.9666,17.55,45,0,16.11,TM,2023-01-15 06:37:01
34,Zaysan,47.4667,84.8667,-1.28,93,100,3.44,KZ,2023-01-15 06:37:01
35,Arraial Do Cabo,-22.9661,-42.0278,74.64,90,100,24.47,BR,2023-01-15 06:37:02
36,Nacala,-14.5428,40.6728,86.29,64,100,1.74,MZ,2023-01-15 06:37:03
37,Chokurdakh,70.6333,147.9167,-39.15,99,100,3.0,RU,2023-01-15 06:37:05
38,Ushuaia,-54.8,-68.3,49.66,57,75,2.3,AR,2023-01-15 06:36:33
39,Atuona,-9.8,-139.0333,78.69,76,100,13.87,PF,2023-01-15 06:37:08
40,Peniche,39.3558,-9.3811,57.11,95,92,24.4,PT,2023-01-15 06:32:34
41,Hermanus,-34.4187,19.2345,71.8,69,100,14.52,ZA,2023-01-15 06:37:13
42,Bredasdorp,-34.5322,20.0403,69.82,64,100,10.87,ZA,2023-01-15 06:37:14
43,Salalah,17.0151,54.0924,77.09,65,40,3.44,OM,2023-01-15 06:37:15
44,Pevek,69.7008,170.3133,-24.09,96,8,2.24,RU,2023-01-15 06:37:17
45,Tual,-5.6667,132.75,83.59,74,80,14.74,ID,2023-01-15 06:38:19
46,Lorengau,-2.0226,147.2712,83.86,71,50,5.48,PG,2023-01-15 06:38:19
47,Bathsheba,13.2167,-59.5167,77.61,78,40,12.66,BB,2023-01-15 06:38:19
48,Albany,42.6001,-73.9662,25.66,79,52,5.01,US,2023-01-15 06:35:21
49,Sitka,57.0531,-135.33,42.69,81,100,5.75,US,2023-01-15 06:38:21
50,Ponta Pora,-22.5361,-55.7256,63.34,97,100,5.01,BR,2023-01-15 06:38:21
51,Revelstoke,50.9832,-118.2023,32.02,100,100,0.0,CA,2023-01-15 06:38:24
52,Fernie,49.5,-115.0687,34.0,95,98,0.83,CA,2023-01-15 06:38:24
53,Ajdabiya,30.7554,20.2263,61.5,68,55,20.45,LY,2023-01-15 06:38:26
54,Hobart,-42.8794,147.3294,70.27,43,20,23.02,AU,2023-01-15 06:37:50
55,Mwene-Ditu,-7.0,23.45,69.33,87,93,2.66,CD,2023-01-15 06:38:27
56,Wau,7.7029,27.9953,81.1,20,7,7.16,SS,2023-01-15 06:38:28
57,Klaksvik,62.2266,-6.589,27.52,80,100,26.82,FO,2023-01-15 06:38:30
58,Bandarbeyla,9.4942,50.8122,78.48,63,5,18.84,SO,2023-01-15 06:38:31
59,Zhigansk,66.7697,123.3711,-55.43,96,100,2.26,RU,2023-01-15 06:38:31
60,College,64.8569,-147.8028,3.18,84,75,6.91,US,2023-01-15 06:38:32
61,Bluff,-46.6,168.3333,62.78,75,0,10.94,NZ,2023-01-15 06:38:33
62,Ternate,0.8,127.4,83.62,72,100,7.52,ID,2023-01-15 06:38:35
63,Kapaa,22.0752,-159.319,70.12,78,0,8.05,US,2023-01-15 06:38:36
64,Yellowknife,62.456,-114.3525,0.55,85,100,2.3,CA,2023-01-15 06:38:37
65,Lagoa,39.05,-27.9833,54.12,56,1,14.9,PT,2023-01-15 06:38:37
66,Rikitea,-23.1203,-134.9692,77.59,76,1,14.76,PF,2023-01-15 06:38:38
67,Healdsburg,38.6105,-122.8692,48.92,87,100,0.0,US,2023-01-15 06:36:02
68,Yar-Sale,66.8333,70.8333,4.62,96,100,11.48,RU,2023-01-15 06:38:39
69,Port Elizabeth,-33.918,25.5701,72.32,86,75,6.91,ZA,2023-01-15 06:38:39
70,Nizwa,22.9333,57.5333,71.94,37,0,4.34,OM,2023-01-15 06:38:40
71,Kathmandu,27.7167,85.3167,62.82,34,20,3.44,NP,2023-01-15 06:38:40
72,Bambous Virieux,-20.3428,57.7575,84.45,65,75,16.11,MU,2023-01-15 06:38:41
73,Magadan,59.5667,150.8,-7.51,83,100,13.69,RU,2023-01-15 06:34:24
74,Izhma,65.0083,53.9113,28.17,96,100,11.34,RU,2023-01-15 06:38:42
75,Ponta Do Sol,32.6667,-17.1,62.01,70,77,5.95,PT,2023-01-15 06:38:42
76,Mantsala,60.6609,25.2838,37.08,88,100,14.23,FI,2023-01-15 06:38:42
77,Lebu,-37.6167,-73.65,54.64,88,3,17.11,CL,2023-01-15 06:38:43
78,Quatre Cocos,-20.2078,57.7625,84.31,74,20,14.34,MU,2023-01-15 06:38:43
79,Alanya,36.5438,31.9998,53.73,47,100,2.84,TR,2023-01-15 06:38:44
80,Qaanaaq,77.484,-69.3632,-3.48,67,93,8.21,GL,2023-01-15 06:38:44
81,Cabra,37.4725,-4.4421,44.71,77,100,2.21,ES,2023-01-15 06:38:45
82,Port Alfred,-33.5906,26.891,71.19,92,99,7.85,ZA,2023-01-15 06:38:45
83,East London,-33.0153,27.9116,77.94,69,20,3.44,ZA,2023-01-15 06:38:45
84,Mataura,-46.1927,168.8643,71.71,58,28,4.16,NZ,2023-01-15 06:38:46
85,Lata,40.1629,-8.3327,54.81,93,100,5.93,PT,2023-01-15 06:38:46
86,Gunjur,13.2019,-16.7339,64.47,72,0,3.44,GM,2023-01-15 06:38:47
87,Quzhou,28.9594,118.8686,35.4,95,100,6.62,CN,2023-01-15 06:38:47
88,Goias,-15.5807,-49.6362,67.28,95,85,2.64,BR,2023-01-15 06:38:48
89,Hithadhoo,-0.6,73.0833,80.42,66,100,7.76,MV,2023-01-15 06:38:48
90,Puerto Ayora,-0.7393,-90.3518,74.55,95,100,1.99,EC,2023-01-15 06:39:49
91,Lere,10.387,8.5726,62.92,27,4,6.67,NG,2023-01-15 06:36:05
92,Karratha,-20.7377,116.8463,89.31,56,8,15.55,AU,2023-01-15 06:39:49
93,Emerald,-23.5333,148.1667,68.43,96,100,13.49,AU,2023-01-15 06:39:50
94,Punta Arenas,-53.15,-70.9167,50.11,71,75,20.71,CL,2023-01-15 06:39:50
95,Grindavik,63.8424,-22.4338,19.87,58,0,12.66,IS,2023-01-15 06:39:51
96,Santa Cruz Cabralia,-16.2781,-39.0247,77.23,83,40,3.44,BR,2023-01-15 06:39:51
97,Ayolas,-27.4,-56.9,66.2,80,1,3.2,PY,2023-01-15 06:39:52
98,Kasungu,-13.0333,33.4833,68.88,89,96,8.03,MW,2023-01-15 06:39:52
99,Asfi,32.2994,-9.2372,54.86,84,1,10.69,MA,2023-01-15 06:39:52
100,Priargunsk,50.3691,119.1012,-20.51,96,5,2.64,RU,2023-01-15 06:39:53
101,Castro,-24.7911,-50.0119,63.41,96,98,2.33,BR,2023-01-15 06:39:54
102,Ovalle,-30.5983,-71.2003,65.95,65,0,2.53,CL,2023-01-15 06:39:54
103,Hasaki,35.7333,140.8333,53.22,76,100,15.19,JP,2023-01-15 06:39:54
104,Bethel,41.3712,-73.414,28.71,75,75,11.5,US,2023-01-15 06:37:09
105,Taoudenni,22.6783,-3.9836,58.53,26,0,11.21,ML,2023-01-15 06:39:55
106,Verkhnyaya Inta,65.9811,60.3094,24.33,94,100,17.52,RU,2023-01-15 06:39:55
107,Port Lincoln,-34.7333,135.8667,69.71,51,100,13.51,AU,2023-01-15 06:39:56
108,Tanete,-3.9443,119.7848,86.74,61,100,11.03,ID,2023-01-15 06:39:56
109,Puerto Colombia,10.9878,-74.9547,78.89,84,100,20.29,CO,2023-01-15 06:39:57
110,Marechal Candido Rondon,-24.5561,-54.0567,68.49,95,100,3.11,BR,2023-01-15 06:39:37
111,Chuy,-33.6971,-53.4616,62.89,73,11,4.25,UY,2023-01-15 06:39:57
112,Carnarvon,-24.8667,113.6333,82.33,56,0,11.92,AU,2023-01-15 06:39:58
113,Luderitz,-26.6481,15.1594,69.98,63,0,3.74,NA,2023-01-15 06:39:58
114,Bairiki,1.3292,172.9752,84.2,70,75,8.05,KI,2023-01-15 06:39:59
115,Chicama,-7.8447,-79.1469,63.14,71,100,2.64,PE,2023-01-15 06:39:59
116,Ulladulla,-35.35,150.4667,72.1,86,78,8.16,AU,2023-01-15 06:38:57
117,Muzhi,65.3667,64.6667,14.11,95,100,6.08,RU,2023-01-15 06:40:00
118,Pangnirtung,66.1451,-65.7125,-18.31,100,100,4.5,CA,2023-01-15 06:40:00
119,Isangel,-19.55,169.2667,82.51,74,100,4.61,VU,2023-01-15 06:37:48
120,Wenling,28.3669,121.36,37.83,76,100,19.55,CN,2023-01-15 06:40:01
121,Santa Isabel,-23.3156,-46.2214,70.9,96,99,1.97,BR,2023-01-15 06:40:01
122,Bikaner,28.0167,73.3,60.06,11,0,2.86,IN,2023-01-15 06:39:41
123,Cabinda,-5.55,12.2,77.14,100,75,4.61,AO,2023-01-15 06:40:02
124,Aksu,41.1231,80.2644,13.48,77,72,3.29,CN,2023-01-15 06:40:02
125,Saint-Philippe,-21.3585,55.7679,85.59,79,37,13.09,RE,2023-01-15 06:40:03
126,Shamary,57.3434,58.2199,11.57,78,100,12.77,RU,2023-01-15 06:40:03
127,Zhob,31.3411,69.4481,41.76,14,0,6.04,PK,2023-01-15 06:40:03
128,Nelson Bay,-32.7167,152.15,86.05,69,0,27.0,AU,2023-01-15 06:40:04
129,Santa Cruz,-17.8,-63.1667,63.86,100,40,3.44,BO,2023-01-15 06:37:55
130,Praia,14.9215,-23.5087,70.34,83,0,17.27,CV,2023-01-15 06:40:05
131,Powell River,49.8496,-124.5361,44.6,80,100,4.36,CA,2023-01-15 06:40:05
132,Tondano,1.3038,124.9112,82.49,60,95,1.63,ID,2023-01-15 06:40:06
133,Saldanha,-33.0117,17.9442,69.85,76,50,15.23,ZA,2023-01-15 06:40:06
134,Crib Point,-38.35,145.2,70.03,62,0,16.67,AU,2023-01-15 06:40:06
135,Poya,-21.35,165.15,81.73,67,38,7.34,NC,2023-01-15 06:40:07
136,Airai,-8.9266,125.4092,68.4,78,100,3.27,TL,2023-01-15 06:41:09
137,Barcelos,41.5388,-8.6151,50.14,84,100,8.7,PT,2023-01-15 06:41:10
138,Maiduguri,11.8464,13.1603,65.73,48,3,9.1,NG,2023-01-15 06:41:11
139,Savalou,7.9281,1.9756,73.99,78,0,0.58,BJ,2023-01-15 06:41:13
140,Cabo San Lucas,22.8909,-109.9124,71.51,75,0,12.88,MX,2023-01-15 06:41:14
141,Manggar,-2.8833,108.2667,82.53,73,99,4.72,ID,2023-01-15 06:41:15
142,Barra Patuca,15.8,-84.2833,73.85,73,97,12.59,HN,2023-01-15 06:41:15
143,San-Pedro,4.7485,-6.6363,75.79,88,7,1.03,CI,2023-01-15 06:41:16
144,Halifax,44.6453,-63.5724,32.22,93,100,14.0,CA,2023-01-15 06:40:05
145,Tongliao,43.6125,122.2653,14.16,26,0,14.18,CN,2023-01-15 06:39:18
146,Saint-Francois,46.4154,3.9054,44.04,87,75,17.27,FR,2023-01-15 06:41:18
147,Kelvington,52.1667,-103.5343,14.38,96,100,5.84,CA,2023-01-15 06:41:19
148,Georgetown,5.4112,100.3354,87.73,78,20,8.05,MY,2023-01-15 06:41:20
149,Amapa,1.0,-52.0,70.83,99,100,1.45,BR,2023-01-15 06:41:21
150,Severo-Kurilsk,50.6789,156.125,16.34,77,100,32.57,RU,2023-01-15 06:38:59
151,Fort Nelson,58.8053,-122.7002,8.19,92,100,0.0,CA,2023-01-15 06:41:23
152,Meulaboh,4.1363,96.1285,83.57,70,92,7.47,ID,2023-01-15 06:41:23
153,Sharjah,25.3573,55.4033,69.78,60,0,6.91,AE,2023-01-15 06:40:52
154,Vanimo,-2.6741,141.3028,82.13,75,32,3.42,PG,2023-01-15 06:41:26
155,Yurla,59.3259,54.3223,16.63,85,100,12.59,RU,2023-01-15 06:41:26
156,Jamestown,42.097,-79.2353,24.39,93,100,9.22,US,2023-01-15 06:36:57
157,Beya,53.0533,90.9139,16.54,81,100,21.41,RU,2023-01-15 06:41:32
158,Sestri Levante,44.2732,9.3968,55.56,87,100,1.01,IT,2023-01-15 06:41:33
159,Noyabrsk,63.1994,75.4507,-2.65,99,100,6.64,RU,2023-01-15 06:41:34
160,Turukhansk,65.8167,87.9833,-34.47,90,18,5.7,RU,2023-01-15 06:41:36
161,Nicoya,10.1483,-85.452,73.98,72,100,17.11,CR,2023-01-15 06:41:38
162,Acapulco,16.8634,-99.8901,75.02,88,20,0.0,MX,2023-01-15 06:40:21
163,Kaitangata,-46.2817,169.8464,64.11,75,0,5.57,NZ,2023-01-15 06:41:38
164,Pochutla,15.7432,-96.4661,69.82,62,2,4.36,MX,2023-01-15 06:41:39
165,Hambantota,6.1241,81.1185,84.54,74,75,10.36,LK,2023-01-15 06:41:39
166,Haines Junction,60.7522,-137.5108,2.91,99,100,0.78,CA,2023-01-15 06:41:40
167,Goksun,38.021,36.4973,34.23,92,100,4.21,TR,2023-01-15 06:41:40
168,Aligudarz,33.4006,49.6949,35.24,90,74,4.18,IR,2023-01-15 06:41:41
169,Port Blair,11.6667,92.75,82.44,54,5,11.5,IN,2023-01-15 06:41:41
170,Norman Wells,65.282,-126.8329,-5.76,71,100,9.22,CA,2023-01-15 06:41:42
171,Calabozo,8.9242,-67.4293,76.44,60,94,5.5,VE,2023-01-15 06:41:42
172,Antigonish,45.6169,-61.9986,33.28,95,100,5.01,CA,2023-01-15 06:41:43
173,Hilo,19.7297,-155.09,73.13,80,75,3.44,US,2023-01-15 06:41:43
174,Gamboula,4.1178,15.1393,77.72,25,98,2.82,CF,2023-01-15 06:41:44
175,Laguna,38.421,-121.4238,49.75,94,100,5.75,US,2023-01-15 06:38:46
176,Ancud,-41.8697,-73.8203,46.22,86,25,4.68,CL,2023-01-15 06:41:44
177,Henties Bay,-22.116,14.2845,66.47,78,95,3.89,NA,2023-01-15 06:41:45
178,Dikson,73.5069,80.5464,-35.39,93,21,3.53,RU,2023-01-15 06:41:45
179,Tanout,14.9709,8.8879,56.19,31,5,14.61,NE,2023-01-15 06:41:46
180,Ndjole,-0.1783,10.7649,76.12,91,47,1.45,GA,2023-01-15 06:41:46
181,Tasiilaq,65.6145,-37.6368,23.16,63,100,12.62,GL,2023-01-15 06:42:47
182,Avera,33.194,-82.5271,29.91,73,0,3.33,US,2023-01-15 06:42:47
183,Rio Gallegos,-51.6226,-69.2181,50.05,53,0,11.5,AR,2023-01-15 06:41:37
184,Kaeo,-35.1,173.7833,69.33,69,1,11.43,NZ,2023-01-15 06:42:48
185,Dakar,14.6937,-17.4441,72.48,83,0,2.3,SN,2023-01-15 06:42:48
186,Kropotkin,45.4375,40.5756,35.56,63,4,8.93,RU,2023-01-15 06:42:49
187,Port Hedland,-20.3167,118.5667,93.25,55,75,18.41,AU,2023-01-15 06:42:49
188,Zhumadian,32.9794,114.0294,35.62,46,99,8.23,CN,2023-01-15 06:42:50
189,Hay River,60.8156,-115.7999,3.18,85,75,6.91,CA,2023-01-15 06:42:50
190,Eyl,7.9803,49.8164,80.64,53,98,23.6,SO,2023-01-15 06:42:51
191,Havelock,34.8791,-76.9013,39.18,71,0,16.11,US,2023-01-15 06:42:51
192,Merauke,-8.4667,140.3333,84.24,71,58,10.8,ID,2023-01-15 06:42:52
193,Nome,64.5011,-165.4064,12.27,73,0,17.27,US,2023-01-15 06:42:52
194,Upernavik,72.7868,-56.1549,1.45,58,99,6.33,GL,2023-01-15 06:42:53
195,Geraldton,-28.7667,114.6,84.61,42,0,24.16,AU,2023-01-15 06:38:53
196,Namie,37.4833,141.0,48.72,73,100,2.84,JP,2023-01-15 06:42:53
197,Nanortalik,60.1432,-45.2371,17.13,79,8,21.54,GL,2023-01-15 06:42:54
198,Mahebourg,-20.4081,57.7,84.49,65,75,16.11,MU,2023-01-15 06:42:54
199,Massaguet,12.4755,15.4365,66.49,23,1,11.74,TD,2023-01-15 06:42:55
200,Itarema,-2.9248,-39.9167,77.18,85,100,10.87,BR,2023-01-15 06:42:55
201,Iqaluit,63.7506,-68.5145,-23.31,61,0,9.22,CA,2023-01-15 06:38:33
202,Talnakh,69.4865,88.3972,-38.97,87,3,3.98,RU,2023-01-15 06:42:56
203,Leningradskiy,69.3833,178.4167,-26.59,100,100,4.43,RU,2023-01-15 06:42:56
204,Provideniya,64.3833,-173.3,0.36,87,68,15.05,RU,2023-01-15 06:42:57
205,Olafsvik,64.8945,-23.7142,22.08,66,3,14.41,IS,2023-01-15 06:42:57
206,Puerto Narino,-3.7703,-70.3831,71.29,99,100,1.83,CO,2023-01-15 06:42:57
207,Kodiak,57.79,-152.4072,35.11,100,0,3.44,US,2023-01-15 06:42:58
208,Carutapera,-1.195,-46.02,73.76,94,100,2.17,BR,2023-01-15 06:42:58
209,Lazarev,52.225,141.5131,-17.5,85,7,7.14,RU,2023-01-15 06:42:59
210,Gamba,-2.65,10.0,76.14,88,100,8.21,GA,2023-01-15 06:42:59
211,Riosucio,5.4216,-75.7032,57.79,99,100,1.83,CO,2023-01-15 06:43:00
212,Mersing,2.4312,103.8405,84.11,84,40,5.75,MY,2023-01-15 06:43:00
213,Namatanai,-3.6667,152.4333,82.78,73,20,6.24,PG,2023-01-15 06:43:00
214,Kirakira,-10.4544,161.9205,79.32,85,100,8.3,SB,2023-01-15 06:43:01
215,Butaritari,3.0707,172.7902,81.25,76,100,10.56,KI,2023-01-15 06:43:02
216,Bosaso,11.2842,49.1816,80.58,69,0,3.44,SO,2023-01-15 06:43:02
217,Matadi,-5.8167,13.45,77.27,91,99,1.81,CD,2023-01-15 06:43:03
218,Bradford,53.7939,-1.7521,39.49,91,75,19.57,GB,2023-01-15 06:38:28
219,Pacifica,37.6138,-122.4869,53.65,89,100,17.0,US,2023-01-15 06:43:05
220,Roxas,11.5853,122.7511,79.14,85,100,6.17,PH,2023-01-15 06:43:07
221,Newport,51.5877,-2.9984,43.83,88,12,25.19,GB,2023-01-15 06:38:56
222,Makakilo City,21.3469,-158.0858,73.72,74,0,4.61,US,2023-01-15 06:43:08
223,Longyearbyen,78.2186,15.6401,26.44,68,75,33.38,SJ,2023-01-15 06:43:09
224,Dingle,10.9995,122.6711,79.59,86,100,6.53,PH,2023-01-15 06:43:09
225,Sayansk,54.1088,102.1648,9.91,86,100,6.06,RU,2023-01-15 06:44:10
226,Alta Floresta,-9.8756,-56.0861,68.81,98,100,0.54,BR,2023-01-15 06:44:11
227,Kismayo,-0.3582,42.5454,83.17,67,25,19.6,SO,2023-01-15 06:44:11
228,Champerico,14.3,-91.9167,75.94,77,3,3.13,GT,2023-01-15 06:44:12
229,Mount Gambier,-37.8333,140.7667,65.34,45,0,14.25,AU,2023-01-15 06:42:19
230,Salvador,13.8333,-88.9167,68.4,84,1,4.94,SV,2023-01-15 06:44:14
231,Smidovich,48.6,133.8167,-13.9,90,100,6.31,RU,2023-01-15 06:44:15
232,Talaya,61.3833,152.75,-26.77,98,100,6.17,RU,2023-01-15 06:44:16
233,Arlit,18.7369,7.3853,61.41,24,82,4.97,NE,2023-01-15 06:44:17
234,Ulagan,50.6321,87.9563,13.84,84,100,2.98,RU,2023-01-15 06:44:19
235,Nemuro,43.3236,145.575,22.33,55,100,10.47,JP,2023-01-15 06:44:20
236,Narsaq,60.9167,-46.05,12.42,87,5,7.85,GL,2023-01-15 06:44:22
237,Choma,-16.8065,26.9531,69.8,82,55,7.09,ZM,2023-01-15 06:44:23
238,Garissa,-0.4536,39.6401,83.25,54,7,8.66,KE,2023-01-15 06:44:24
239,Constitucion,-35.3333,-72.4167,57.4,71,0,3.98,CL,2023-01-15 06:44:25
240,Souillac,-20.5167,57.5167,84.58,65,75,16.11,MU,2023-01-15 06:44:25
241,Tiksi,71.6872,128.8694,-29.96,89,100,1.36,RU,2023-01-15 06:44:27
242,Bubaque,11.2833,-15.8333,75.74,68,38,6.02,GW,2023-01-15 06:44:28
243,Houma,29.5958,-90.7195,44.01,85,0,0.0,US,2023-01-15 06:43:56
244,Fortuna,40.5982,-124.1573,48.65,92,31,7.0,US,2023-01-15 06:44:30
245,Manturovo,58.3353,44.7619,17.46,93,100,11.41,RU,2023-01-15 06:44:31
246,Khorinsk,52.1657,109.7726,-5.8,88,75,3.83,RU,2023-01-15 06:44:32
247,Shieli,44.1667,66.75,23.99,30,7,5.82,KZ,2023-01-15 06:44:33
248,Saryozek,44.3583,77.9753,11.5,56,4,0.65,KZ,2023-01-15 06:41:22
249,Malanje,-9.5402,16.341,68.0,85,100,2.8,AO,2023-01-15 06:44:36
250,Simga,21.6333,81.7,79.81,35,0,2.46,IN,2023-01-15 06:44:37
251,Altamont,42.2068,-121.7372,33.98,84,75,12.66,US,2023-01-15 06:40:20
252,Illapel,-31.6308,-71.1653,63.3,76,0,1.72,CL,2023-01-15 06:44:38
253,Delmiro Gouveia,-9.3886,-37.9992,69.87,96,63,3.78,BR,2023-01-15 06:44:38
254,Katsuura,35.1333,140.3,54.37,82,100,12.41,JP,2023-01-15 06:44:38
255,Port Hardy,50.6996,-127.4199,39.38,100,75,4.61,CA,2023-01-15 06:44:39
256,Naze,28.3667,129.4833,67.12,84,100,10.27,JP,2023-01-15 06:44:39
257,Pozo Colorado,-23.4923,-58.7972,68.29,98,100,3.78,PY,2023-01-15 06:44:40
258,Egvekinot,66.3167,-179.1667,-12.93,83,100,20.27,RU,2023-01-15 06:44:40
259,Nouadhibou,20.931,-17.0347,66.4,50,29,14.27,MR,2023-01-15 06:44:41
260,Garavuti,37.5672,68.4469,12.85,72,3,2.8,TJ,2023-01-15 06:44:41
261,Bonavista,48.6499,-53.1147,44.22,98,100,20.71,CA,2023-01-15 06:44:42
262,Ostrovnoy,68.0531,39.5131,31.39,92,100,6.93,RU,2023-01-15 06:44:42
263,Dunedin,-45.8742,170.5036,62.89,80,0,12.33,NZ,2023-01-15 06:44:31
264,Hamilton,39.1834,-84.5333,26.94,86,0,0.0,US,2023-01-15 06:43:10
265,Asosa,10.0667,34.5333,72.73,33,0,6.96,ET,2023-01-15 06:44:43
266,Cozumel,20.5083,-86.9458,71.67,53,75,6.91,MX,2023-01-15 06:40:02
267,Husavik,66.0449,-17.3389,19.92,68,100,10.49,IS,2023-01-15 06:44:44
268,Oranjestad,12.524,-70.027,77.92,90,20,8.05,AW,2023-01-15 06:41:54
269,Pisco,-13.7,-76.2167,66.25,77,98,2.3,PE,2023-01-15 06:44:44
270,Rocha,-34.4833,-54.3333,57.88,81,0,4.32,UY,2023-01-15 06:44:45
271,Vanavara,60.34,102.2797,-25.53,96,100,4.88,RU,2023-01-15 06:45:45
272,Gao,16.6362,1.637,60.26,20,14,11.5,ML,2023-01-15 06:42:30
273,High Level,58.5169,-117.136,10.51,92,100,0.0,CA,2023-01-15 06:45:46
274,Lompoc,34.6391,-120.4579,54.59,95,75,10.36,US,2023-01-15 06:45:46
275,Faanui,-16.4833,-151.75,76.01,86,100,18.32,PF,2023-01-15 06:45:47
276,Padang,-0.9492,100.3543,82.45,81,100,3.44,ID,2023-01-15 06:45:47
277,Torbay,47.6666,-52.7314,56.17,94,100,27.63,CA,2023-01-15 06:45:47
278,Salamiyah,35.0113,37.0532,47.46,77,100,2.46,SY,2023-01-15 06:45:48
279,Yuanping,38.7153,112.7575,22.68,20,0,13.06,CN,2023-01-15 06:45:48
280,Shiyan,32.6475,110.7781,41.14,26,100,7.07,CN,2023-01-15 06:45:49
281,Hanzhong,33.0728,107.0303,35.64,44,100,3.94,CN,2023-01-15 06:45:49
282,Nara,34.6851,135.8049,56.57,33,100,4.52,JP,2023-01-15 06:45:49
283,Hofn,64.2539,-15.2082,19.71,66,10,19.46,IS,2023-01-15 06:45:50
284,Severodvinsk,64.5635,39.8302,32.11,90,100,13.31,RU,2023-01-15 06:45:50
285,Pimentel,-6.8367,-79.9342,68.29,77,0,11.5,PE,2023-01-15 06:45:51
286,Dali,25.7,100.1833,57.2,33,2,7.9,CN,2023-01-15 06:45:51
287,Oranjemund,-28.55,16.4333,65.3,80,57,14.67,NA,2023-01-15 06:45:51
288,Ginir,7.1333,40.7,66.42,32,0,8.84,ET,2023-01-15 06:45:52
289,Bolshoye Murashkino,55.7826,44.7754,9.0,88,19,12.3,RU,2023-01-15 06:45:52
290,Nyurba,63.2842,118.3319,-64.32,99,86,2.3,RU,2023-01-15 06:45:52
291,Sao Joao Da Barra,-21.6403,-41.0511,74.64,89,100,18.66,BR,2023-01-15 06:45:53
292,Aykhal,66.0,111.5,-42.38,97,100,0.65,RU,2023-01-15 06:45:53
293,Aswan,24.0934,32.907,52.9,58,0,0.0,EG,2023-01-15 06:45:54
294,Kamenka,51.3223,42.7678,13.89,85,98,11.32,RU,2023-01-15 06:45:54
295,High Rock,26.6208,-78.2833,61.41,57,25,21.83,BS,2023-01-15 06:45:55
296,San Quintin,30.4833,-115.95,59.65,90,100,5.08,MX,2023-01-15 06:45:55
297,Mandalgovi,45.7625,106.2708,6.98,41,0,13.51,MN,2023-01-15 06:45:55
298,Mehamn,71.0357,27.8492,30.15,64,50,14.97,NO,2023-01-15 06:45:56
299,Port-Gentil,-0.7193,8.7815,78.76,94,40,5.75,GA,2023-01-15 06:45:56
300,Kutum,14.2,24.6667,59.81,25,100,7.43,SD,2023-01-15 06:45:56
301,Raton,36.9034,-104.4391,48.54,41,0,0.0,US,2023-01-15 06:45:57
302,Victoria,22.2855,114.1577,67.24,76,100,24.0,HK,2023-01-15 06:42:15
303,Van,38.4924,43.3831,24.15,74,20,3.44,TR,2023-01-15 06:45:57
304,Otradnoye,59.7775,30.8181,37.45,91,99,12.24,RU,2023-01-15 06:45:58
305,Malpe,13.35,74.7167,87.1,55,38,6.4,IN,2023-01-15 06:45:58
306,Bwanga,-3.0308,31.7601,65.26,90,100,1.81,TZ,2023-01-15 06:45:59
307,Kruisfontein,-34.0033,24.7314,66.88,77,100,4.25,ZA,2023-01-15 06:45:59
308,Sidi Ali,36.0998,0.4206,50.29,55,0,5.91,DZ,2023-01-15 06:46:00
309,Wuzhou,23.4833,111.3167,50.68,64,98,5.88,CN,2023-01-15 06:46:00
310,Te Anau,-45.4167,167.7167,72.91,51,0,5.39,NZ,2023-01-15 06:46:01
311,Mar Del Plata,-38.0023,-57.5575,68.88,89,0,10.0,AR,2023-01-15 06:46:01
312,Impfondo,1.6381,18.0667,80.85,56,65,3.24,CG,2023-01-15 06:46:02
313,Mandan,46.8267,-100.8896,34.38,91,0,13.8,US,2023-01-15 06:46:02
314,Russell,32.3502,-85.1999,35.2,80,0,4.61,US,2023-01-15 06:46:03
315,Moose Factory,51.2585,-80.6094,14.0,92,100,8.05,CA,2023-01-15 06:46:05
316,Moen,69.1304,18.6123,7.86,84,0,2.3,NO,2023-01-15 06:46:06
317,Bilibino,68.0546,166.4372,-15.83,85,5,8.61,RU,2023-01-15 06:47:07
318,Birin,26.8865,88.0718,56.16,46,42,7.11,NP,2023-01-15 06:47:08
319,Copperas Cove,31.1241,-97.9031,51.57,79,0,11.5,US,2023-01-15 06:44:55
320,Saskylakh,71.9167,114.0833,-33.38,97,100,1.41,RU,2023-01-15 06:47:10
321,Tuatapere,-46.1333,167.6833,66.38,68,0,4.16,NZ,2023-01-15 06:47:10
322,Aklavik,68.2191,-135.0107,-17.72,100,100,3.18,CA,2023-01-15 06:42:28
323,Los Llanos De Aridane,28.6585,-17.9182,62.35,71,75,13.0,ES,2023-01-15 06:47:11
324,Tirumala,13.6833,79.35,69.98,34,100,5.57,IN,2023-01-15 06:43:48
325,Humberto De Campos,-2.5983,-43.4611,73.63,92,100,2.35,BR,2023-01-15 06:47:13
326,Bayji,34.9311,43.487,53.85,79,14,3.24,IQ,2023-01-15 06:47:14
327,Kachiry,53.0675,76.1036,11.25,95,95,10.04,KZ,2023-01-15 06:47:15
328,Oistins,13.0667,-59.5333,77.09,78,40,12.66,BB,2023-01-15 06:47:16
329,Qandala,11.472,49.8728,78.3,57,5,9.66,SO,2023-01-15 06:47:17
330,Assen,52.9967,6.5625,42.84,60,100,20.71,NL,2023-01-15 06:47:18
331,Pizarro,4.9533,-77.366,74.3,93,100,6.49,CO,2023-01-15 06:47:19
332,Covington,39.0837,-84.5086,27.25,87,0,0.0,US,2023-01-15 06:46:36
333,Udachnyy,66.4167,112.4,-46.55,71,100,0.56,RU,2023-01-15 06:47:22
334,Novyy Urengoy,66.0833,76.6333,-17.57,98,100,8.72,RU,2023-01-15 06:44:58
335,Adrar,20.5022,-10.0711,57.78,27,0,11.56,MR,2023-01-15 06:47:25
336,Cidreira,-30.1811,-50.2056,72.5,80,100,6.6,BR,2023-01-15 06:47:25
337,Clyde River,70.4692,-68.5914,-12.77,77,100,21.85,CA,2023-01-15 06:47:26
338,Zhezkazgan,47.8043,67.7144,6.78,56,0,8.95,KZ,2023-01-15 06:47:27
339,Itabera,-23.8619,-49.1372,67.06,95,93,1.7,BR,2023-01-15 06:47:28
340,Sur,22.5667,59.5289,70.7,43,1,12.28,OM,2023-01-15 06:47:29
341,Perehonivka,48.5355,30.5192,31.46,93,100,5.03,UA,2023-01-15 06:47:30
342,Praia Da Vitoria,38.7333,-27.0667,53.85,66,75,16.28,PT,2023-01-15 06:47:32
343,Naliya,23.2667,68.8333,71.11,15,0,11.03,IN,2023-01-15 06:47:32
344,Abu Dhabi,24.4667,54.3667,69.82,65,0,2.3,AE,2023-01-15 06:47:34
345,Fereydunshahr,32.941,50.121,29.55,97,89,5.82,IR,2023-01-15 06:47:35
346,Kailua,21.4022,-157.7394,75.18,84,57,4.47,US,2023-01-15 06:47:36
347,Vila Velha,-20.3297,-40.2925,76.95,89,40,4.61,BR,2023-01-15 06:47:38
348,Dzaoudzi,-12.7887,45.2699,82.29,78,75,5.75,YT,2023-01-15 06:47:38
349,Tutoia,-2.7619,-42.2744,76.59,89,100,7.36,BR,2023-01-15 06:47:39
350,Hope,33.6671,-93.5916,46.45,80,93,6.15,US,2023-01-15 06:47:39
351,Broken Hill,-31.95,141.4333,93.27,23,3,16.44,AU,2023-01-15 06:47:40
352,Aginskoye,51.1,114.53,0.82,73,75,9.98,RU,2023-01-15 06:47:40
353,Nakhon Phanom,17.3333,104.4167,89.4,24,0,1.68,TH,2023-01-15 06:47:41
354,Mitu,1.1983,-70.1733,70.81,96,100,1.61,CO,2023-01-15 06:47:41
355,Ihosy,-22.4,46.1167,76.28,63,20,11.16,MG,2023-01-15 06:47:41
356,Porto Walter,-8.2686,-72.7439,72.28,92,100,3.47,BR,2023-01-15 06:47:42
357,Okhotsk,59.3833,143.3,-17.64,99,100,10.8,RU,2023-01-15 06:47:42
358,Meaford,44.6001,-80.583,22.82,86,3,3.38,CA,2023-01-15 06:45:26
359,Esfahan,32.6572,51.6776,35.24,65,13,1.07,IR,2023-01-15 06:47:43
360,Chake Chake,-5.2459,39.7666,82.94,69,100,10.07,TZ,2023-01-15 06:47:43
361,Vardo,70.3705,31.1107,21.18,68,34,23.02,NO,2023-01-15 06:47:44
362,Saint George,37.1041,-113.5841,45.19,79,100,11.5,US,2023-01-15 06:45:47
363,Male,4.1748,73.5089,85.95,62,75,9.22,MV,2023-01-15 06:48:45
364,Turbat,26.0023,63.044,61.32,9,0,22.95,PK,2023-01-15 06:48:45
365,Orsha,54.5153,30.4053,33.3,96,100,14.63,BY,2023-01-15 06:48:45
366,Cedar City,37.6775,-113.0619,32.97,86,100,19.57,US,2023-01-15 06:43:56
367,Okha,53.5739,142.9478,-26.68,91,1,5.93,RU,2023-01-15 06:48:46
368,Hami,42.8,93.45,16.48,24,5,4.99,CN,2023-01-15 06:48:46
369,Smithers,54.7804,-127.1743,32.32,100,100,4.61,CA,2023-01-15 06:48:47
370,Da Nang,16.0678,108.2208,85.98,51,0,8.05,VN,2023-01-15 06:48:47
371,Valea Danului,45.1833,24.65,36.95,95,100,1.5,RO,2023-01-15 06:48:48
372,Codrington,-38.2667,141.9667,63.16,51,0,17.27,AU,2023-01-15 06:48:48
373,Matara,5.9485,80.5353,83.43,61,100,6.22,LK,2023-01-15 06:48:49
374,Komsomolskiy,40.4272,71.7189,18.32,67,0,2.3,UZ,2023-01-15 06:48:49
375,Tianpeng,30.9866,103.9393,40.64,58,100,3.91,CN,2023-01-15 06:48:50
376,Nizhniy Tsasuchey,50.5167,115.1333,1.49,70,63,6.69,RU,2023-01-15 06:48:50
377,Bereda,43.2686,-7.5406,39.58,100,39,1.12,ES,2023-01-15 06:48:50
378,Maltahohe,-24.8333,16.9833,83.91,21,13,13.06,NA,2023-01-15 06:48:51
379,Alekseyevsk,57.8406,108.3492,-2.2,93,100,1.34,RU,2023-01-15 06:48:51
380,Wasilla,61.5814,-149.4394,34.74,66,100,13.8,US,2023-01-15 06:48:52
381,San Vicente,-26.6167,-54.1333,63.63,98,97,0.87,AR,2023-01-15 06:48:52
382,Madison,34.7334,-86.5667,32.38,86,0,8.01,US,2023-01-15 06:46:21
383,Shimoda,34.6667,138.95,57.56,88,100,9.98,JP,2023-01-15 06:48:53
384,Kendari,-3.945,122.4989,82.76,74,100,6.42,ID,2023-01-15 06:48:53
385,Anadyr,64.75,177.4833,-1.52,77,40,29.08,RU,2023-01-15 06:48:54
386,Bangkal,6.0667,121.0667,80.44,80,99,11.18,PH,2023-01-15 06:48:54
387,San Andres,12.5847,-81.7006,78.82,73,20,10.36,CO,2023-01-15 06:48:55
388,Mackay,-21.15,149.2,74.68,92,100,22.32,AU,2023-01-15 06:48:55
389,Atasu,48.6814,71.6433,-0.56,90,75,8.21,KZ,2023-01-15 06:48:56
390,Ayagoz,47.9714,80.4392,-3.03,88,100,13.71,KZ,2023-01-15 06:48:56
391,Ustka,54.5805,16.8619,42.66,88,100,17.52,PL,2023-01-15 06:48:56
392,Sola,-13.8833,167.55,78.33,81,100,5.21,VU,2023-01-15 06:48:57
393,Coihaique,-45.5752,-72.0662,48.81,76,0,2.3,CL,2023-01-15 06:48:12
394,Bajil,15.0584,43.2851,79.34,64,5,5.32,YE,2023-01-15 06:48:58
395,Taltal,-25.4,-70.4833,65.08,83,39,1.23,CL,2023-01-15 06:48:58
396,Kilindoni,-7.9139,39.6668,82.58,73,80,11.41,TZ,2023-01-15 06:48:58
397,Adet,11.2644,37.4888,64.38,57,7,4.79,ET,2023-01-15 06:48:59
398,Sobolevo,54.4299,31.8996,30.07,97,100,11.7,RU,2023-01-15 06:48:59
399,Caluquembe,-13.7833,14.6833,62.01,87,99,1.34,AO,2023-01-15 06:49:00
400,Christchurch,-43.5333,172.6333,67.41,61,2,20.71,NZ,2023-01-15 06:49:00
401,Yoichi,43.2039,140.7703,26.35,69,100,8.01,JP,2023-01-15 06:49:01
402,Yulara,-25.2406,130.9889,98.04,18,95,19.86,AU,2023-01-15 06:48:25
403,Duncanville,32.6518,-96.9083,53.46,58,0,12.66,US,2023-01-15 06:49:02
404,Dois Vizinhos,-25.7336,-53.0572,66.56,98,100,0.74,BR,2023-01-15 06:49:02
405,Yerbogachen,61.2767,108.0108,-42.97,98,60,2.33,RU,2023-01-15 06:49:03
406,Sisimiut,66.9395,-53.6735,12.2,85,100,13.85,GL,2023-01-15 06:49:04
407,Urucara,-2.5364,-57.76,71.64,99,100,1.99,BR,2023-01-15 06:49:05
408,Sorland,67.667,12.6934,33.66,65,100,23.67,NO,2023-01-15 06:49:05
409,Londa,15.4691,74.5191,81.73,18,0,4.38,IN,2023-01-15 06:50:06
410,Shumskiy,54.8318,99.1328,17.85,79,100,9.01,RU,2023-01-15 06:50:06
411,Shasta Lake,40.6804,-122.3708,47.12,83,66,0.34,US,2023-01-15 06:50:07
412,Lagarto,-10.9172,-37.65,70.63,96,100,1.77,BR,2023-01-15 06:50:07
413,Povenets,62.8487,34.8262,34.05,95,100,14.05,RU,2023-01-15 06:50:08
414,Svetlaya,46.5389,138.3297,7.99,52,0,1.3,RU,2023-01-15 06:50:10
415,Faya,18.3851,42.4509,57.31,47,0,6.24,SA,2023-01-15 06:50:11
416,Nenjiang,49.1833,125.2167,-3.32,88,41,4.03,CN,2023-01-15 06:50:12
417,Belokurikha,51.9959,84.9896,19.67,75,100,10.16,RU,2023-01-15 06:50:14
418,Kahului,20.8947,-156.47,75.85,74,40,8.05,US,2023-01-15 06:50:17
419,Buala,-8.145,159.5921,76.42,90,100,6.38,SB,2023-01-15 06:50:18
420,Srednekolymsk,67.45,153.6833,-37.53,100,100,2.57,RU,2023-01-15 06:50:18
421,Kuliyapitiya,7.4688,80.0401,85.68,45,95,5.75,LK,2023-01-15 06:50:19
422,Midland,31.9974,-102.0779,52.47,37,0,11.5,US,2023-01-15 06:46:48
423,Hailar,49.2,119.7,-9.33,91,8,8.97,CN,2023-01-15 06:50:21
424,Portland,45.5234,-122.6762,52.0,85,100,10.36,US,2023-01-15 06:47:25
425,Ketchikan,55.3422,-131.6461,43.27,100,100,3.44,US,2023-01-15 06:50:24
426,Adzhamka,48.5424,32.5354,29.5,75,100,3.56,UA,2023-01-15 06:50:25
427,Bindi,9.9167,-11.45,64.24,43,15,1.36,SL,2023-01-15 06:50:26
428,Zhuhai,22.2769,113.5678,64.18,77,40,19.57,CN,2023-01-15 06:50:27
429,Angoche,-16.2325,39.9086,82.72,74,100,2.46,MZ,2023-01-15 06:50:28
430,Launceston,-41.45,147.1667,78.62,27,7,14.97,AU,2023-01-15 06:45:33
431,Jalu,29.0331,21.5482,54.75,73,2,11.45,LY,2023-01-15 06:50:29
432,Tilichiki,60.4667,166.1,-3.35,95,100,9.08,RU,2023-01-15 06:50:30
433,Osakarovka,50.565,72.5692,6.01,90,94,11.32,KZ,2023-01-15 06:50:32
434,Khilok,51.3674,110.4676,-0.11,78,72,5.73,RU,2023-01-15 06:50:34
435,Korla,41.7597,86.1469,16.05,83,98,8.88,CN,2023-01-15 06:50:34
436,Batken,39.8333,71.0,13.24,37,0,3.0,KG,2023-01-15 06:50:35
437,Ampanihy,-24.7,44.75,85.59,48,0,10.07,MG,2023-01-15 06:50:36
438,Imeni Poliny Osipenko,52.4201,136.4853,-21.08,94,98,3.74,RU,2023-01-15 06:50:37
439,Lima,-12.0432,-77.0282,67.89,82,0,9.22,PE,2023-01-15 06:50:38
440,Tenango,18.65,-98.1833,58.68,46,9,5.79,MX,2023-01-15 06:50:38
441,Carballo,43.213,-8.691,48.76,81,94,5.82,ES,2023-01-15 06:50:39
442,Odweyne,9.4092,45.064,71.98,48,0,2.37,SO,2023-01-15 06:50:39
443,Manzil Salim,35.8567,8.4765,43.99,53,10,5.1,TN,2023-01-15 06:50:40
444,Gornopravdinsk,60.05,69.9,9.84,96,75,6.13,RU,2023-01-15 06:50:40
445,Nantucket,41.2835,-70.0995,38.14,93,100,28.77,US,2023-01-15 06:50:41
446,Asau,46.4333,26.4,31.28,85,10,3.98,RO,2023-01-15 06:50:41
447,Puerto Lopez,4.0845,-72.956,75.15,73,90,4.09,CO,2023-01-15 06:50:42
448,Harper,4.375,-7.7169,76.68,84,7,1.34,LR,2023-01-15 06:50:42
449,Teknaf,20.8624,92.3058,79.75,49,0,13.42,BD,2023-01-15 06:50:43
450,Terrak,65.087,12.3715,33.67,78,100,11.34,NO,2023-01-15 06:50:43
451,Shingu,33.7333,135.9833,59.45,85,96,5.88,JP,2023-01-15 06:50:43
452,Huarmey,-10.0681,-78.1522,68.5,81,100,6.02,PE,2023-01-15 06:50:44
453,Prince Albert,53.2001,-105.7677,15.75,92,100,6.91,CA,2023-01-15 06:51:41
454,Hervey Bay,-25.2986,152.8535,74.01,92,100,7.0,AU,2023-01-15 06:49:38
455,Fukumitsu,36.55,136.8667,46.78,93,100,4.0,JP,2023-01-15 06:51:45
456,Tefe,-3.3542,-64.7114,73.02,98,100,2.8,BR,2023-01-15 06:51:11
457,Sukumo,32.9333,132.7333,57.85,78,100,6.55,JP,2023-01-15 06:51:45
458,San Policarpo,12.1791,125.5072,81.46,76,92,7.27,PH,2023-01-15 06:51:46
459,Ureki,41.9956,41.7786,49.96,56,76,6.33,GE,2023-01-15 06:51:46
460,Multai,21.7667,78.25,72.68,29,0,6.8,IN,2023-01-15 06:51:47
461,Paamiut,61.994,-49.6678,10.13,92,88,8.63,GL,2023-01-15 06:51:47
462,Cartagena Del Chaira,1.3349,-74.8429,70.25,93,93,2.95,CO,2023-01-15 06:51:48
463,Quezon,7.7303,125.0989,80.92,87,100,3.94,PH,2023-01-15 06:51:48
464,Novikovo,51.1537,37.8879,22.62,91,100,9.6,RU,2023-01-15 06:51:48
465,Khani,41.9563,42.9566,36.97,54,87,3.8,GE,2023-01-15 06:51:49
466,Morehead,37.2711,-87.1764,28.99,98,0,0.0,US,2023-01-15 06:51:49
467,Akhnur,32.8667,74.7333,61.34,40,0,4.59,IN,2023-01-15 06:51:50
468,Itapirapua,-15.8233,-50.6133,70.25,93,100,2.64,BR,2023-01-15 06:51:25
469,Rudnichnyy,59.617,52.4703,16.38,91,100,13.0,RU,2023-01-15 06:51:50
470,Flin Flon,54.7682,-101.865,5.02,96,100,5.64,CA,2023-01-15 06:51:51
471,Erzin,36.9559,36.2,50.58,75,100,7.02,TR,2023-01-15 06:51:51
472,Sao Filipe,14.8961,-24.4956,73.56,66,0,7.85,CV,2023-01-15 06:51:52
473,Honiara,-9.4333,159.95,75.2,92,100,1.48,SB,2023-01-15 06:51:52
474,Escarcega,18.6089,-90.7454,56.71,85,0,3.24,MX,2023-01-15 06:51:52
475,Ishigaki,24.3448,124.1572,64.53,94,75,17.27,JP,2023-01-15 06:51:53
476,Stromness,58.965,-3.296,39.16,65,98,29.66,GB,2023-01-15 06:51:53
477,Dmitriyevka,54.75,55.3333,-4.45,88,92,7.29,RU,2023-01-15 06:51:54
478,Seoul,37.5683,126.9778,33.19,86,100,9.22,KR,2023-01-15 06:49:20
479,Liverpool,53.4106,-2.9779,43.29,84,75,31.07,GB,2023-01-15 06:51:54
480,Simplicio Mendes,-7.8539,-41.9103,69.66,82,23,2.68,BR,2023-01-15 06:51:55
481,Belyy Yar,53.6039,91.3903,17.49,76,40,11.18,RU,2023-01-15 06:51:55
482,Filingue,14.3521,3.3168,61.88,19,22,9.42,NE,2023-01-15 06:51:56
483,Peleduy,59.6289,112.7406,-25.73,98,99,1.19,RU,2023-01-15 06:51:56
484,Fairbanks,64.8378,-147.7164,3.2,84,0,6.91,US,2023-01-15 06:51:39
485,Sirari,-1.2333,34.4333,74.37,48,41,0.31,TZ,2023-01-15 06:51:57
486,Les Cayes,18.2,-73.75,73.58,84,76,9.13,HT,2023-01-15 06:51:57
487,Gambela,8.25,34.5833,88.9,28,5,4.43,ET,2023-01-15 06:51:58
488,Cap Malheureux,-19.9842,57.6142,82.47,68,4,8.01,MU,2023-01-15 06:51:58
489,Ximei,24.9639,118.3794,56.35,79,100,7.83,CN,2023-01-15 06:51:59
490,Vetluzhskiy,58.3902,45.4654,16.84,93,100,11.05,RU,2023-01-15 06:51:59
491,Orlik,52.5178,99.825,10.02,69,100,10.58,RU,2023-01-15 06:52:00
492,Ridgecrest,35.6225,-117.6709,49.86,75,100,8.05,US,2023-01-15 06:49:10
493,Labuhan,-6.8844,112.2051,84.65,71,95,13.0,ID,2023-01-15 06:52:00
494,Alofi,-19.0595,-169.9187,78.69,69,51,4.61,NU,2023-01-15 06:52:01
495,Vagay,57.9375,69.0217,14.05,95,98,7.09,RU,2023-01-15 06:52:01
496,Adria,45.0564,12.0578,42.08,86,87,1.81,IT,2023-01-15 06:52:02
497,Caravelas,-17.7125,-39.2481,73.56,84,10,4.32,BR,2023-01-15 06:52:03
498,La Ronge,55.1001,-105.2842,10.65,85,100,6.91,CA,2023-01-15 06:52:04
499,Cherskiy,68.75,161.3,-41.01,100,39,2.46,RU,2023-01-15 06:52:05
500,Lively,46.4334,-81.1498,11.32,97,25,1.74,CA,2023-01-15 06:52:05
501,Lahat,-3.8,103.5333,87.89,58,100,2.15,ID,2023-01-15 06:53:06
502,Alto Araguaia,-17.3147,-53.2153,68.59,92,100,1.5,BR,2023-01-15 06:53:07
503,Wysokie Mazowieckie,52.9166,22.5171,34.05,71,100,20.69,PL,2023-01-15 06:53:08
504,Wana,32.2989,69.5725,40.69,19,0,5.12,PK,2023-01-15 06:53:09
505,Marawi,7.9986,124.2928,74.16,91,100,1.74,PH,2023-01-15 06:53:09
506,Ponta Delgada,37.7333,-25.6667,54.32,50,75,18.41,PT,2023-01-15 06:53:10
507,Jian,27.1172,114.9793,39.56,78,100,11.81,CN,2023-01-15 06:53:11
508,Pokhara,28.2333,83.9833,67.15,35,0,7.27,NP,2023-01-15 06:53:12
509,Calimete,22.5333,-80.9061,54.37,74,0,4.43,CU,2023-01-15 06:53:14
510,Severobaykalsk,55.65,109.3167,-4.13,92,100,1.41,RU,2023-01-15 06:53:15
511,Kedgwick,47.6446,-67.3434,-7.1,100,29,2.08,CA,2023-01-15 06:53:17
512,Grand Gaube,-20.0064,57.6608,84.6,68,4,8.01,MU,2023-01-15 06:53:18
513,Imbituba,-28.24,-48.6703,70.38,95,100,3.6,BR,2023-01-15 06:48:48
514,Namibe,-15.1961,12.1522,74.26,70,100,3.89,AO,2023-01-15 06:51:21
515,Vestmannaeyjar,63.4427,-20.2734,25.39,66,100,5.35,IS,2023-01-15 06:53:20
516,Khartoum,15.5518,32.5324,67.01,27,100,1.01,SD,2023-01-15 06:50:32
517,Broome,42.2506,-75.833,23.7,87,100,17.27,US,2023-01-15 06:53:22
518,Price,39.5994,-110.8107,31.26,93,100,0.0,US,2023-01-15 06:53:22
519,Inongo,-1.95,18.2667,74.03,85,97,5.23,CD,2023-01-15 06:53:23
520,Byron Bay,-28.65,153.6167,79.72,66,70,9.35,AU,2023-01-15 06:53:24
521,Mantua,45.1667,10.7833,42.04,90,100,3.2,IT,2023-01-15 06:53:25
522,Adilabad,19.6667,78.5333,82.38,33,4,2.66,IN,2023-01-15 06:53:26
523,Ilulissat,69.2167,-51.1,-5.75,77,23,6.29,GL,2023-01-15 06:53:29
524,Podor,16.6527,-14.9587,64.35,52,0,2.3,MR,2023-01-15 06:53:30
525,Hermon,44.8101,-68.9134,28.33,80,82,3.0,US,2023-01-15 06:53:31
526,Beira,-19.8436,34.8389,87.89,58,40,11.99,MZ,2023-01-15 06:53:33
527,Sahuaripa,29.05,-109.2333,58.21,31,100,5.37,MX,2023-01-15 06:53:36
528,Karla,59.3723,24.9275,38.57,89,100,16.11,EE,2023-01-15 06:53:37
529,San Patricio,28.017,-97.5169,62.46,76,0,7.29,US,2023-01-15 06:53:38
530,Calamar,10.2511,-74.9146,75.88,84,100,9.35,CO,2023-01-15 06:53:40
531,Aras,42.5617,-2.356,41.43,100,75,6.91,ES,2023-01-15 06:53:40
532,Seymchan,62.8833,152.4333,-24.77,96,100,7.76,RU,2023-01-15 06:53:41
533,Ust-Maya,60.4167,134.5333,-47.83,99,100,1.81,RU,2023-01-15 06:53:41
534,Dir,35.2058,71.8756,39.16,46,0,3.94,PK,2023-01-15 06:53:42
535,Mayor Pablo Lagerenza,-19.9309,-60.7718,67.87,91,1,3.91,PY,2023-01-15 06:53:42
536,Jimenez,28.3333,-105.4,57.31,30,0,6.4,MX,2023-01-15 06:53:43
537,Dolores,-36.3132,-57.6792,62.71,69,0,7.45,AR,2023-01-15 06:53:43
538,Jijiga,9.35,42.8,67.93,45,8,6.93,ET,2023-01-15 06:53:44
539,Saint-Augustin,51.226,-58.6502,18.14,92,100,13.22,CA,2023-01-15 06:53:44
540,Helong,42.5397,128.9972,12.88,56,0,2.53,CN,2023-01-15 06:53:44
541,Reporoa,-38.4333,176.35,69.42,64,15,4.14,NZ,2023-01-15 06:50:11
542,Synya,65.3718,58.0387,23.49,94,100,13.56,RU,2023-01-15 06:53:45
543,Vesoul,47.5833,5.8333,43.61,94,100,12.15,FR,2023-01-15 06:53:45
544,Atar,20.5169,-13.0499,62.8,22,5,9.64,MR,2023-01-15 06:53:46
545,Gimli,50.6336,-96.9907,23.02,86,100,4.61,CA,2023-01-15 06:53:46
546,Palembang,-2.9167,104.7458,84.29,74,40,8.05,ID,2023-01-15 06:53:47
547,Mildura,-34.2,142.15,88.07,35,69,13.53,AU,2023-01-15 06:53:47
548,Aberdeen,57.1437,-2.0981,40.19,85,98,23.02,GB,2023-01-15 06:51:26
549,Bilma,18.6853,12.9164,56.75,33,4,9.55,NE,2023-01-15 06:54:48
550,Kuusamo,65.9667,29.1833,28.44,93,100,4.61,FI,2023-01-15 06:54:48
551,Sale,34.0389,-6.8166,54.75,100,75,0.0,MA,2023-01-15 06:54:26
552,Varia,44.5725,-0.1104,49.01,88,100,12.59,FR,2023-01-15 06:54:49
553,Itambacuri,-18.0311,-41.685,69.89,92,100,4.38,BR,2023-01-15 06:54:49
554,Mujiayingzi,42.1167,118.7833,16.2,27,0,17.4,CN,2023-01-15 06:54:50
555,Blagoyevo,63.3667,47.9167,28.02,92,100,10.71,RU,2023-01-15 06:54:50
556,Santa Fe,-31.6333,-60.7,73.98,62,0,1.99,AR,2023-01-15 06:52:28
557,Kudahuvadhoo,2.6708,72.8944,79.99,72,11,7.27,MV,2023-01-15 06:54:51
558,Lexington,37.9887,-84.4777,24.1,83,73,3.6,US,2023-01-15 06:53:27
559,Ropczyce,50.0523,21.6089,43.83,80,100,21.25,PL,2023-01-15 06:54:51
560,Mogadishu,2.0371,45.3438,80.47,74,75,17.27,SO,2023-01-15 06:54:52
561,Phan Thiet,10.9333,108.1,84.58,68,25,10.16,VN,2023-01-15 06:52:37
562,Batagay-Alyta,67.8006,130.4114,-49.25,94,36,4.79,RU,2023-01-15 06:54:52
563,Manga,11.6636,-1.0731,64.96,20,100,7.94,BF,2023-01-15 06:54:53
564,Lucea,18.451,-78.1736,75.06,71,87,21.09,JM,2023-01-15 06:54:53
565,Hudson Bay,52.85,-102.3842,12.33,97,100,5.01,CA,2023-01-15 06:54:53
566,Grootfontein,-19.5667,18.1167,71.76,57,87,5.44,NA,2023-01-15 06:54:54
567,Tecpatan,17.1333,-93.3,55.36,96,46,1.36,MX,2023-01-15 06:54:54
568,Deputatskiy,69.3,139.9,-37.08,100,100,0.98,RU,2023-01-15 06:54:55
569,Zirandaro,18.45,-100.9833,72.66,54,1,1.59,MX,2023-01-15 06:54:55
570,Vung Tau,10.346,107.0843,83.23,67,10,6.82,VN,2023-01-15 06:52:44
571,Katobu,-4.9408,122.5276,87.91,56,100,8.66,ID,2023-01-15 06:54:56
572,Tevaitoa,-16.7833,-151.5,78.75,70,100,20.78,PF,2023-01-15 06:54:56
573,Ust-Kuyga,70.0167,135.6,-30.57,95,100,2.71,RU,2023-01-15 06:54:57
574,Nova Russas,-4.7067,-40.5631,72.77,85,100,2.17,BR,2023-01-15 06:54:57
575,Port Macquarie,-31.4333,152.9167,79.9,65,0,12.62,AU,2023-01-15 06:54:58
576,Coahuayana,18.7333,-103.6833,68.54,84,0,4.07,MX,2023-01-15 06:54:58
577,Balabac,7.9868,117.0645,81.86,71,100,13.8,PH,2023-01-15 06:54:59
578,Kigoma,-4.8769,29.6267,72.19,83,75,0.0,TZ,2023-01-15 06:54:59
579,Trincomalee,8.5711,81.2335,77.72,77,100,11.77,LK,2023-01-15 06:55:00
580,Malibu,34.005,-118.8101,58.01,96,100,4.0,US,2023-01-15 06:55:00
581,Kumba,4.6363,9.4469,75.65,75,66,1.14,CM,2023-01-15 06:55:00
582,Ilebo,-4.3167,20.5833,74.08,80,100,2.44,CD,2023-01-15 06:55:01
583,Cabuyaro,4.2817,-72.794,75.16,73,43,4.7,CO,2023-01-15 06:55:01
584,Boda,4.3189,17.4695,81.7,21,37,7.45,CF,2023-01-15 06:55:02
585,Umm Lajj,25.0213,37.2685,67.69,49,77,11.27,SA,2023-01-15 06:55:03
586,Lafiagi,8.8667,5.4167,73.22,23,11,1.59,NG,2023-01-15 06:55:04
587,Aloleng,16.1307,119.7824,81.28,70,100,17.11,PH,2023-01-15 06:55:05
588,Anloga,5.7947,0.8973,79.07,80,6,7.36,GH,2023-01-15 06:55:06
589,Hualmay,-11.0964,-77.6139,68.4,82,100,6.87,PE,2023-01-15 06:55:07
590,Santiago,-33.4569,-70.6483,66.85,51,0,3.44,CL,2023-01-15 06:53:46
591,Nigde,37.8333,34.75,34.61,77,100,2.75,TR,2023-01-15 06:55:08
592,Mihail Kogalniceanu,44.3667,28.45,36.28,100,75,5.99,RO,2023-01-15 06:55:10
593,Narasannapeta,18.4167,84.05,83.89,44,4,6.91,IN,2023-01-15 06:55:10
594,Hoquiam,46.9809,-123.8893,50.0,95,100,3.0,US,2023-01-15 06:55:12
595,Portree,57.4129,-6.1942,39.52,87,40,14.25,GB,2023-01-15 06:56:13
596,Alyangula,-13.8483,136.4192,85.69,65,85,1.03,AU,2023-01-15 06:56:14
597,Winkler,49.1817,-97.941,23.18,93,99,3.44,CA,2023-01-15 06:56:15
598,Coos Bay,43.3665,-124.2179,48.92,100,100,1.01,US,2023-01-15 06:56:15
599,Onokhino,56.925,65.5394,17.92,81,92,11.1,RU,2023-01-15 06:56:16
600,Darnah,32.767,22.6367,55.26,87,100,19.24,LY,2023-01-15 06:56:17
601,Glenwood Springs,39.5505,-107.3248,36.63,93,100,13.8,US,2023-01-15 06:56:15
602,Tougue,11.4667,-11.6,63.41,25,63,1.97,GN,2023-01-15 06:56:20
603,Sarany,58.5,58.8833,11.7,86,100,15.23,RU,2023-01-15 06:56:20
604,Pangoa,-12.1167,-73.0,67.71,99,100,0.85,PE,2023-01-15 06:56:21
605,Katherine,-14.4667,132.2667,80.92,78,75,8.05,AU,2023-01-15 06:56:22
606,Tiarei,-17.5333,-149.3333,78.82,76,100,6.35,PF,2023-01-15 06:56:23
607,Boa Vista,2.8197,-60.6733,75.18,88,40,6.91,BR,2023-01-15 06:54:56
608,Nouakchott,18.0858,-15.9785,58.93,30,86,11.79,MR,2023-01-15 06:56:24
609,Kibaya,-5.3,36.5667,69.73,60,100,6.15,TZ,2023-01-15 06:56:25
610,Baykit,61.67,96.37,-17.57,95,100,2.62,RU,2023-01-15 06:56:25
611,Hua Hin,12.5707,99.9588,84.22,74,20,8.05,TH,2023-01-15 06:56:26
612,Severnyy,50.677,36.5532,23.04,93,100,8.95,RU,2023-01-15 06:56:27
613,Rolla,37.9514,-91.7713,33.85,74,100,13.0,US,2023-01-15 06:56:28
614,Iquique,-20.2208,-70.1431,66.24,76,0,1.63,CL,2023-01-15 06:56:28
615,Batticaloa,7.7102,81.6924,79.97,75,95,11.39,LK,2023-01-15 06:56:29
616,Ust-Ilimsk,58.0006,102.6619,5.36,93,100,0.69,RU,2023-01-15 06:56:30
617,Mwinilunga,-11.7358,24.4293,64.9,92,100,1.77,ZM,2023-01-15 06:56:31
618,Kabanjahe,3.1001,98.4908,71.76,80,100,2.84,ID,2023-01-15 06:56:32
619,Porto Novo,6.4965,2.6036,76.82,85,3,1.5,BJ,2023-01-15 06:56:33
620,Tacoronte,28.4769,-16.4102,56.32,93,20,11.01,ES,2023-01-15 06:56:33
621,Mbala,-8.8402,31.3659,64.27,81,100,0.85,ZM,2023-01-15 06:56:35
622,Kashi,39.4547,75.9797,11.41,67,20,6.71,CN,2023-01-15 06:56:36
623,Port Moresby,-9.4431,147.1797,83.62,70,40,11.5,PG,2023-01-15 06:56:37
624,Candolim,15.5181,73.7626,80.6,57,0,6.91,IN,2023-01-15 06:56:39
625,Ciudad Bolivar,8.1222,-63.5497,73.94,82,62,7.14,VE,2023-01-15 06:56:40
626,Micomeseng,2.1462,10.6164,71.82,85,81,2.37,GQ,2023-01-15 06:56:40
627,Turek,52.0155,18.5005,46.62,78,100,25.46,PL,2023-01-15 06:56:41
628,Cayenne,4.9333,-52.3333,71.64,100,100,0.0,GF,2023-01-15 06:56:41
629,Sibay,52.7181,58.6658,10.85,80,29,4.18,RU,2023-01-15 06:56:42
630,Kongolo,-5.3833,27.0,71.37,93,100,2.55,CD,2023-01-15 06:56:42
631,Maniitsoq,65.4167,-52.9,13.03,91,100,18.19,GL,2023-01-15 06:56:43
632,Warwick,41.7001,-71.4162,34.92,82,100,18.41,US,2023-01-15 06:56:43
633,Lodja,-3.4833,23.4333,76.12,74,91,2.51,CD,2023-01-15 06:56:43
634,Urumqi,43.801,87.6005,-6.65,84,1,4.47,CN,2023-01-15 06:52:27
635,Leeuwarden,53.2014,5.8086,44.6,72,75,20.71,NL,2023-01-15 06:54:43
636,Soligalich,59.0778,42.2864,24.12,95,100,10.89,RU,2023-01-15 06:56:44
637,Hobyo,5.3505,48.5268,80.47,64,77,25.84,SO,2023-01-15 06:56:44
638,Rincon,32.296,-81.2354,38.86,72,0,4.59,US,2023-01-15 06:56:45
639,Semirom,31.4167,51.5667,31.96,99,99,5.95,IR,2023-01-15 06:56:45
640,Owando,-0.4819,15.8999,77.2,73,67,2.59,CG,2023-01-15 06:56:46
641,Orotukan,62.2667,151.7,-26.59,99,100,5.01,RU,2023-01-15 06:56:46
642,Uyskoye,54.3775,60.0047,16.93,74,18,5.97,RU,2023-01-15 06:56:47
643,Rognan,67.0953,15.3878,30.34,83,100,10.87,NO,2023-01-15 06:56:47
644,Camacari,-12.6975,-38.3242,76.77,92,88,4.83,BR,2023-01-15 06:57:48
645,Kraslava,55.8951,27.168,36.41,84,100,16.73,LV,2023-01-15 06:56:22
646,Gbarnga,6.9956,-9.4722,65.71,100,50,1.01,LR,2023-01-15 06:57:48
647,Robertsport,6.7533,-11.3686,76.39,88,52,4.81,LR,2023-01-15 06:57:49
648,Uchiza,-8.4592,-76.4633,69.96,98,100,1.41,PE,2023-01-15 06:57:49
649,Masuguru,-11.3667,38.4167,80.35,79,96,3.2,TZ,2023-01-15 06:57:50
650,Kuldur,49.2167,131.6333,-6.68,90,100,3.02,RU,2023-01-15 06:57:50
651,Kingisepp,59.3733,28.6134,35.83,84,100,14.47,RU,2023-01-15 06:57:50
652,Omboue,-1.5746,9.2618,79.2,80,98,4.76,GA,2023-01-15 06:57:51
653,Kununurra,-15.7667,128.7333,93.18,55,40,10.36,AU,2023-01-15 06:54:00
654,Karakol,42.4907,78.3936,15.22,62,0,1.3,KG,2023-01-15 06:57:51
655,Kieta,-6.2167,155.6333,82.29,77,86,5.06,PG,2023-01-15 06:57:52
656,Abu Kamal,34.4506,40.9171,52.2,73,0,1.9,SY,2023-01-15 06:57:52
657,Irbeyskoye,55.6428,95.4522,14.25,85,100,17.0,RU,2023-01-15 06:57:53
658,Buraydah,26.326,43.975,50.45,54,17,10.16,SA,2023-01-15 06:57:53
659,Puerto Del Rosario,28.5004,-13.8627,65.95,77,75,16.11,ES,2023-01-15 06:57:54
660,Gravdal,68.1214,13.5031,29.26,72,100,14.52,NO,2023-01-15 06:57:54
661,Tura,25.5198,90.2201,73.0,32,0,6.64,IN,2023-01-15 06:57:55
662,Aromashevo,56.8602,68.6375,14.77,93,86,10.33,RU,2023-01-15 06:57:55
663,Harer,9.3094,42.1258,66.87,43,5,4.32,ET,2023-01-15 06:57:55
664,Antofagasta,-23.65,-70.4,65.48,84,16,4.83,CL,2023-01-15 06:57:56
665,Chiuza,47.2333,24.25,37.87,86,100,1.79,RO,2023-01-15 06:57:56
666,Libreville,0.3925,9.4537,79.47,78,90,2.46,GA,2023-01-15 06:56:55
667,Macusani,-14.0833,-70.4333,34.88,89,100,3.0,PE,2023-01-15 06:57:57
668,The Valley,18.217,-63.0578,78.66,78,13,12.55,AI,2023-01-15 06:57:57
669,Oga,46.4631,10.347,32.54,81,100,5.48,IT,2023-01-15 06:57:58
670,Beloha,-25.1667,45.05,86.54,50,0,12.28,MG,2023-01-15 06:57:58
671,Birao,10.2849,22.7882,74.34,18,10,11.88,CF,2023-01-15 06:57:59
672,Onverwacht,5.5833,-55.1833,76.86,99,78,0.94,SR,2023-01-15 06:57:59
673,Ambon,-3.6954,128.1814,87.94,66,40,10.36,ID,2023-01-15 06:58:00
674,Hirara,24.8,125.2833,66.47,82,75,27.63,JP,2023-01-15 06:58:00
675,Santa Catarina De Tepehuanes,25.35,-105.7333,44.29,71,0,6.87,MX,2023-01-15 06:58:00
676,Teya,60.3778,92.6267,0.28,96,97,2.8,RU,2023-01-15 06:58:01
677,Yarada,17.65,83.2667,84.52,51,20,4.61,IN,2023-01-15 06:58:01
678,Sarahan,31.5167,77.8,48.09,19,1,4.9,IN,2023-01-15 06:58:02
679,Plettenberg Bay,-34.0527,23.3716,71.1,70,27,4.0,ZA,2023-01-15 06:58:02
680,Sept-Iles,50.2001,-66.3821,6.8,66,0,11.5,CA,2023-01-15 06:54:02
681,Longhua,23.6137,114.1919,53.08,71,99,7.52,CN,2023-01-15 06:58:03
682,Petropavlovsk-Kamchatskiy,53.0452,158.6483,16.39,45,75,20.13,RU,2023-01-15 06:58:04
683,Awjilah,29.1081,21.2869,54.61,75,3,12.77,LY,2023-01-15 06:58:05
684,Reynosa,26.0833,-98.2833,60.85,81,0,14.14,MX,2023-01-15 06:58:06
685,Clarksville,36.5298,-87.3595,30.45,84,0,0.0,US,2023-01-15 06:53:11
686,Quchan,37.106,58.5095,29.14,40,86,8.75,IR,2023-01-15 06:58:07
687,Garowe,8.4054,48.4845,77.29,44,10,19.24,SO,2023-01-15 06:58:07
688,Abengourou,6.7297,-3.4964,67.51,99,31,0.78,CI,2023-01-15 06:58:08
689,Bennington,42.8781,-73.1968,24.75,80,100,9.22,US,2023-01-15 06:58:09
